[
    {
        "DataCollectorId": "9459498b-c76b-4f0d-8f3d-ada18da8642d",
        "FullName": "Aadan",
        "DisplayName": "Aadan",
        "YearOfBirth": 1980,
        "Sex": 1,
        "PreferredLanguage": 0,
        "GpsLocation": {
            "Latitude": 9.04448,
            "Longitude": 45.28703
        },
        "Region": "Togda",
        "District": "Daka",
        "Village": "Unawatuna",
        "RegisteredAt": "2018-09-28T09:51:16.904071+02:00"
    },
    {
        "DataCollectorId": "e1638158-2017-42ae-a37c-e42acdb1c701",
        "FullName": "Abdi",
        "DisplayName": "Abdi",
        "YearOfBirth": 1981,
        "Sex": 2,
        "PreferredLanguage": 0,
        "GpsLocation": {
            "Latitude": 4.683914,
            "Longitude": 46.619861
        },
        "Region": "Togda",
        "District": "Kilimani",
        "Village": "Boodhley",
        "RegisteredAt": "2018-09-28T09:51:16.904071+02:00"
    },
    {
        "DataCollectorId": "0eefe93a-e299-43d4-bccb-c39db0211ec4",
        "FullName": "Abdi A",
        "DisplayName": "Abdi A",
        "YearOfBirth": 1982,
        "Sex": 1,
        "PreferredLanguage": 0,
        "GpsLocation": {
            "Latitude": 9.446095,
            "Longitude": 46.61935
        },
        "Region": "Togda",
        "District": "Rogaland",
        "Village": "Moss",
        "RegisteredAt": "2018-09-28T09:51:29.975256+02:00"
    },
    {
        "DataCollectorId": "d5bb9005-4f69-46cb-8e7e-ca64a0517511",
        "FullName": "Abdiqani",
        "DisplayName": "Abdiqani",
        "YearOfBirth": 1983,
        "Sex": 2,
        "PreferredLanguage": 0,
        "GpsLocation": {
            "Latitude": 8.930046,
            "Longitude": 46.163455
        },
        "Region": "Jaman",
        "District": "Ainabo",
        "Village": "Fadhiyar",
        "RegisteredAt": "2018-09-28T09:51:29.975279+02:00"
    },
    {
        "DataCollectorId": "52D01C3D-0EE1-454D-B226-1E80215E8D72",
        "FullName": "Abdis",
        "DisplayName": "Abdis",
        "YearOfBirth": 1983,
        "Sex": 1,
        "PreferredLanguage": 0,
        "GpsLocation": {
            "Latitude": 9.446059,
            "Longitude": 45.29938
        },
        "Region": "Togda",
        "District": "Hedmark",
        "Village": "Son",
        "RegisteredAt": "2018-09-28T09:43:29.975279+02:00"
    },
    {
        "DataCollectorId": "D7B798F9-F0CB-475E-8453-6E97B78A7F05",
        "FullName": "Adan",
        "DisplayName": "Adan",
        "YearOfBirth": 1984,
        "Sex": 1,
        "PreferredLanguage": 0,
        "GpsLocation": {
            "Latitude": 9.446059,
            "Longitude": 45.293386
        },
        "Region": "Basal",
        "District": "Mara",
        "Village": "Fadhiyar",
        "RegisteredAt": "2018-09-28T09:33:29.975279+02:00"
    },
    {
        "DataCollectorId": "F15A51BC-2D0E-44F2-8DE6-486614647711",
        "FullName": "Adnaan",
        "DisplayName": "Adnaan",
        "YearOfBirth": 1983,
        "Sex": 1,
        "PreferredLanguage": 0,
        "GpsLocation": {
            "Latitude": 8.92448,
            "Longitude": 46.26753
        },
        "Region": "Basal",
        "District": "Daka",
        "Village": "Bali",
        "RegisteredAt": "2018-09-28T09:23:29.975279+02:00"
    },
    {
        "DataCollectorId": "AC8009A5-DBFF-405F-B7D9-88B2C73F3AAA",
        "FullName": "Amina",
        "DisplayName": "Amina",
        "YearOfBirth": 1983,
        "Sex": 2,
        "PreferredLanguage": 0,
        "GpsLocation": {
            "Latitude": 9.018774,
            "Longitude": 46.779414
        },
        "Region": "Basal",
        "District": "Mara",
        "Village": "Wau",
        "RegisteredAt": "2018-09-28T09:13:29.975279+02:00"
    },
    {
        "DataCollectorId": "CA6DAA84-3423-49F0-88D8-D9CC676DCFBD",
        "FullName": "Awale",
        "DisplayName": "Awale",
        "YearOfBirth": 1983,
        "Sex": 1,
        "PreferredLanguage": 0,
        "GpsLocation": {
            "Latitude": 8.72995,
            "Longitude": 44.82275
        },
        "Region": "Togda",
        "District": "Rio",
        "Village": "Oppsal",
        "RegisteredAt": "2018-09-28T09:43:29.975279+02:00"
    },
    {
        "DataCollectorId": "095AB706-BA2C-42EA-BDF1-62854D725C6D",
        "FullName": "Awo",
        "DisplayName": "Awo",
        "YearOfBirth": 1985,
        "Sex": 1,
        "PreferredLanguage": 0,
        "GpsLocation": {
            "Latitude": 9.534862,
            "Longitude": 45.534065
        },
        "Region": "Basal",
        "District": "Tofo",
        "Village": "Molde",
        "RegisteredAt": "2018-09-28T09:43:29.975279+02:00"
    },
    {
        "DataCollectorId": "C1F612F7-4166-4FE9-B72D-225033250F4E",
        "FullName": "Ayanle",
        "DisplayName": "Ayanle",
        "YearOfBirth": 1987,
        "Sex": 2,
        "PreferredLanguage": 0,
        "GpsLocation": {
            "Latitude": 9.55772,
            "Longitude": 45.533727
        },
        "Region": "Basal",
        "District": "Daka",
        "Village": "Unawatuna",
        "RegisteredAt": "2018-09-28T09:43:29.975279+02:00"
    },
    {
        "DataCollectorId": "2116C5F0-E409-4D22-B0CB-CD573FAD263B",
        "FullName": "Bob",
        "DisplayName": "Bob",
        "YearOfBirth": 1973,
        "Sex": 1,
        "PreferredLanguage": 0,
        "GpsLocation": {
            "Latitude": 8.91518,
            "Longitude": 45.305299
        },
        "Region": "Jaman",
        "District": "Mara",
        "Village": "Os",
        "RegisteredAt": "2018-09-28T09:43:29.975279+02:00"
    },
    {
        "DataCollectorId": "A5EFDA20-BBCE-429B-B9A8-877A9BEC429F",
        "FullName": "Daamur",
        "DisplayName": "Daamur",
        "YearOfBirth": 1983,
        "Sex": 1,
        "PreferredLanguage": 0,
        "GpsLocation": {
            "Latitude": 8.594785,
            "Longitude": 46.082954
        },
        "Region": "Basal",
        "District": "Mara",
        "Village": "Wau",
        "RegisteredAt": "2018-09-28T09:43:29.975279+02:00"
    },
    {
        "DataCollectorId": "EBFB78A3-1350-41EC-8624-452BA59AD2E7",
        "FullName": "Fiqirje",
        "DisplayName": "Fiqirje",
        "YearOfBirth": 1983,
        "Sex": 1,
        "PreferredLanguage": 0,
        "GpsLocation": {
            "Latitude": 8.621061,
            "Longitude": 45.147891
        },
        "Region": "Jaman",
        "District": "Tofo",
        "Village": "Beira",
        "RegisteredAt": "2018-09-28T09:43:29.975279+02:00"
    },
    {
        "DataCollectorId": "3F751938-1553-4F2E-A2EF-8604F10CCBE8",
        "FullName": "Gacan",
        "DisplayName": "Gacan",
        "YearOfBirth": 1983,
        "Sex": 1,
        "PreferredLanguage": 0,
        "GpsLocation": {
            "Latitude": 5.152149,
            "Longitude": 46.199616
        },
        "Region": "Beira",
        "District": "Odweyne",
        "Village": "Odweyne",
        "RegisteredAt": "2018-09-28T09:43:29.975279+02:00"
    },
    {
        "DataCollectorId": "80DF57EA-4767-4D69-BF0D-A68F3608CF4C",
        "FullName": "Geele",
        "DisplayName": "Geele",
        "YearOfBirth": 1983,
        "Sex": 2,
        "PreferredLanguage": 0,
        "GpsLocation": {
            "Latitude": 9.503833,
            "Longitude": 45.533115
        },
        "Region": "Togda",
        "District": "Hedmark",
        "Village": "Son",
        "RegisteredAt": "2018-09-28T09:43:29.975279+02:00"
    },
    {
        "DataCollectorId": "E8A8B5B6-7294-4E05-B30B-9824F1AF4EA0",
        "FullName": "Giire",
        "DisplayName": "Giire",
        "YearOfBirth": 1985,
        "Sex": 2,
        "PreferredLanguage": 0,
        "GpsLocation": {
            "Latitude": 8.594785,
            "Longitude": 46.082954
        },
        "Region": "Basal",
        "District": "Buskerud",
        "Village": "Stranda",
        "RegisteredAt": "2018-09-28T09:43:29.975279+02:00"
    },
    {
        "DataCollectorId": "C4B4FC93-5BCB-4011-B2EA-59A4CE0E509E",
        "FullName": "Goo",
        "DisplayName": "Goo",
        "YearOfBirth": 1986,
        "Sex": 1,
        "PreferredLanguage": 0,
        "GpsLocation": {
            "Latitude": 9.018774,
            "Longitude": 46.779414
        },
        "Region": "Togda",
        "District": "Ainabo",
        "Village": "Fadhiyar",
        "RegisteredAt": "2018-09-28T09:43:29.975279+02:00"
    },
    {
        "DataCollectorId": "D177EF3B-9C72-45C0-9793-D36D82DF2EC8",
        "FullName": "Guled",
        "DisplayName": "Guled",
        "YearOfBirth": 1990,
        "Sex": 2,
        "PreferredLanguage": 0,
        "GpsLocation": {
            "Latitude": 8.66414,
            "Longitude": 45.01852
        },
        "Region": "Togda",
        "District": "Kilimani",
        "Village": "Mandawi",
        "RegisteredAt": "2018-09-28T09:43:29.975279+02:00"
    },
    {
        "DataCollectorId": "512754EA-ACB6-441C-86C7-7224552986DD",
        "FullName": "Halimo",
        "DisplayName": "Halimo",
        "YearOfBirth": 1980,
        "Sex": 1,
        "PreferredLanguage": 0,
        "GpsLocation": {
            "Latitude": 9.066287,
            "Longitude": 46.412179
        },
        "Region": "Togda",
        "District": "Ainabo",
        "Village": "Doro",
        "RegisteredAt": "2018-09-28T09:43:29.975279+02:00"
    },
    {
        "DataCollectorId": "62DB6E3C-621C-4B38-8F8A-B77EE60F0131",
        "FullName": "Hodan",
        "DisplayName": "Hodan",
        "YearOfBirth": 1982,
        "Sex": 2,
        "PreferredLanguage": 0,
        "GpsLocation": {
            "Latitude": 9.28339,
            "Longitude": 46.25271
        },
        "Region": "Jaman",
        "District": "Mara",
        "Village": "Oppsal",
        "RegisteredAt": "2018-09-28T09:43:29.975279+02:00"
    },
    {
        "DataCollectorId": "E5A08A25-78C4-4F5E-9B22-03F88EE4F452",
        "FullName": "Ike",
        "DisplayName": "Ike",
        "YearOfBirth": 1981,
        "Sex": 1,
        "PreferredLanguage": 0,
        "GpsLocation": {
            "Latitude": 8.91518,
            "Longitude": 45.305299
        },
        "Region": "Basal",
        "District": "Odweyne",
        "Village": "Bali",
        "RegisteredAt": "2018-09-28T09:43:29.975279+02:00"
    },
    {
        "DataCollectorId": "60393AD6-7860-4996-95C6-6720FD40A442",
        "FullName": "John",
        "DisplayName": "John",
        "YearOfBirth": 1991,
        "Sex": 1,
        "PreferredLanguage": 0,
        "GpsLocation": {
            "Latitude": 8.79153,
            "Longitude": 45.30918
        },
        "Region": "Jaman",
        "District": "Troms",
        "Village": "Dalen",
        "RegisteredAt": "2018-09-28T09:43:29.975279+02:00"
    },
    {
        "DataCollectorId": "2BEC5404-434D-4739-ABD0-C4C4F9152398",
        "FullName": "Kirir",
        "DisplayName": "Kirir",
        "YearOfBirth": 1986,
        "Sex": 2,
        "PreferredLanguage": 0,
        "GpsLocation": {
            "Latitude": 9.446059,
            "Longitude": 45.293386
        },
        "Region": "Togda",
        "District": "Ainabo",
        "Village": "Doro",
        "RegisteredAt": "2018-09-28T09:43:29.975279+02:00"
    },
    {
        "DataCollectorId": "38E8E6E8-2E59-4363-A726-2D05DFF9BFE1",
        "FullName": "Laangadhe",
        "DisplayName": "Laangadhe",
        "YearOfBirth": 1988,
        "Sex": 1,
        "PreferredLanguage": 0,
        "GpsLocation": {
            "Latitude": 8.309062,
            "Longitude": 46.111737
        },
        "Region": "Togda",
        "District": "Ainabo",
        "Village": "Kirir",
        "RegisteredAt": "2018-09-28T09:43:29.975279+02:00"
    },
    {
        "DataCollectorId": "41DECFF1-98A8-456D-854F-D3A7D8490808",
        "FullName": "Mahmoud",
        "DisplayName": "Mahmoud",
        "YearOfBirth": 1985,
        "Sex": 1,
        "PreferredLanguage": 0,
        "GpsLocation": {
            "Latitude": 8.309062,
            "Longitude": 46.111737
        },
        "Region": "Jaman",
        "District": "Tofo",
        "Village": "Balaadhis",
        "RegisteredAt": "2018-09-28T09:43:29.975279+02:00"
    },
    {
        "DataCollectorId": "81757E41-A820-49C1-B5BF-A412FE24757D",
        "FullName": "Mahmoud Kirir",
        "DisplayName": "Mahmoud Kirir",
        "YearOfBirth": 1985,
        "Sex": 1,
        "PreferredLanguage": 0,
        "GpsLocation": {
            "Latitude": 8.309062,
            "Longitude": 46.111737
        },
        "Region": "Jaman",
        "District": "Tofo",
        "Village": "Balaadhis",
        "RegisteredAt": "2018-09-28T09:43:29.975279+02:00"
    },
    {
        "DataCollectorId": "C6102873-C301-4646-A7F1-08CF6AECBDF5",
        "FullName": "Marie",
        "DisplayName": "Marie",
        "YearOfBirth": 1983,
        "Sex": 2,
        "PreferredLanguage": 0,
        "GpsLocation": {
            "Latitude": 8.30062,
            "Longitude": 46.100737
        },
        "Region": "Jaman",
        "District": "Troms",
        "Village": "Dalen",
        "RegisteredAt": "2018-09-28T09:43:29.975279+02:00"
    },
    {
        "DataCollectorId": "7D3B55C3-FC75-4B83-B2BC-679846B8D45E",
        "FullName": "Mike",
        "DisplayName": "Mike",
        "YearOfBirth": 1980,
        "Sex": 1,
        "PreferredLanguage": 0,
        "GpsLocation": {
            "Latitude": 8.594785,
            "Longitude": 46.082954
        },
        "Region": "Basal",
        "District": "Buskerud",
        "Village": "Rykkinn",
        "RegisteredAt": "2018-09-28T09:43:29.975279+02:00"
    },
    {
        "DataCollectorId": "A490233A-8953-4086-BF7E-CCDFFFDDBB55",
        "FullName": "Mohamed",
        "DisplayName": "Mohamed",
        "YearOfBirth": 1989,
        "Sex": 1,
        "PreferredLanguage": 0,
        "GpsLocation": {
            "Latitude": 9.446059,
            "Longitude": 45.293386
        },
        "Region": "Basal",
        "District": "Mara",
        "Village": "Doro",
        "RegisteredAt": "2018-09-28T09:43:29.975279+02:00"
    },
    {
        "DataCollectorId": "5EA60D4B-D1F8-457C-8FB1-519272AD142B",
        "FullName": "Mohamed Kirir",
        "DisplayName": "Mohamed Kirir",
        "YearOfBirth": 1989,
        "Sex": 1,
        "PreferredLanguage": 0,
        "GpsLocation": {
            "Latitude": 9.446059,
            "Longitude": 45.293386
        },
        "Region": "Basal",
        "District": "Mara",
        "Village": "Doro",
        "RegisteredAt": "2018-09-28T09:43:29.975279+02:00"
    },
    {
        "DataCollectorId": "C89B699A-E93B-47C8-9977-1B702C88B9D5",
        "FullName": "Muse",
        "DisplayName": "Muse",
        "YearOfBirth": 1979,
        "Sex": 2,
        "PreferredLanguage": 0,
        "GpsLocation": {
            "Latitude": 9.066287,
            "Longitude": 46.412179
        },
        "Region": "Togda",
        "District": "Rogaland",
        "Village": "Vestby",
        "RegisteredAt": "2018-09-28T09:43:29.975279+02:00"
    },
    {
        "DataCollectorId": "AAC80248-D092-41F5-AFED-0F5493756FEC",
        "FullName": "Mustafe",
        "DisplayName": "Mustafe",
        "YearOfBirth": 1982,
        "Sex": 1,
        "PreferredLanguage": 0,
        "GpsLocation": {
            "Latitude": 8.79153,
            "Longitude": 45.30918
        },
        "Region": "Jaman",
        "District": "Tofo",
        "Village": "Molde",
        "RegisteredAt": "2018-09-28T09:43:29.975279+02:00"
    },
    {
        "DataCollectorId": "08486DDF-B419-415E-87D5-6D32FB0CAF27",
        "FullName": "Nageeya",
        "DisplayName": "Nageeya",
        "YearOfBirth": 1980,
        "Sex": 2,
        "PreferredLanguage": 0,
        "GpsLocation": {
            "Latitude": 8.92448,
            "Longitude": 46.26753
        },
        "Region": "Togda",
        "District": "Ainabo",
        "Village": "Fadhiyar",
        "RegisteredAt": "2018-09-28T09:43:29.975279+02:00"
    },
    {
        "DataCollectorId": "C10A0AF0-5104-42CC-AF08-A284055B02F4",
        "FullName": "Nimao",
        "DisplayName": "Nimao",
        "YearOfBirth": 1981,
        "Sex": 2,
        "PreferredLanguage": 0,
        "GpsLocation": {
            "Latitude": 9.46481,
            "Longitude": 46.18691
        },
        "Region": "Togda",
        "District": "Ainabo",
        "Village": "Doro",
        "RegisteredAt": "2018-09-28T09:43:29.975279+02:00"
    },
    {
        "DataCollectorId": "6F9CEE01-B7DC-4C45-8E27-4EDA47A46ABF",
        "FullName": "Noor",
        "DisplayName": "Noor",
        "YearOfBirth": 1982,
        "Sex": 2,
        "PreferredLanguage": 0,
        "GpsLocation": {
            "Latitude": 8.92448,
            "Longitude": 46.26753
        },
        "Region": "Togda",
        "District": "Bura",
        "Village": "Santa Teresa",
        "RegisteredAt": "2018-09-28T09:43:29.975279+02:00"
    },
    {
        "DataCollectorId": "93DFC428-2C7B-4A69-93CE-80D7A552E086",
        "FullName": "Rahma",
        "DisplayName": "Rahma",
        "YearOfBirth": 1985,
        "Sex": 2,
        "PreferredLanguage": 0,
        "GpsLocation": {
            "Latitude": 9.092598,
            "Longitude": 45.014898
        },
        "Region": "Basal",
        "District": "Odweyne",
        "Village": "Juma",
        "RegisteredAt": "2018-09-28T09:43:29.975279+02:00"
    },
    {
        "DataCollectorId": "7CA3B2E8-0956-4F4C-B182-D5B5EB095000",
        "FullName": "Rashiid",
        "DisplayName": "Rashiid",
        "YearOfBirth": 1981,
        "Sex": 1,
        "PreferredLanguage": 0,
        "GpsLocation": {
            "Latitude": 8.309062,
            "Longitude": 46.111737
        },
        "Region": "Basal",
        "District": "Odweyne",
        "Village": "Juma",
        "RegisteredAt": "2018-09-28T09:43:29.975279+02:00"
    },
    {
        "DataCollectorId": "54BB1D0A-FFFD-4D36-A758-753956F2B190",
        "FullName": "Sahra",
        "DisplayName": "Sahra",
        "YearOfBirth": 1980,
        "Sex": 2,
        "PreferredLanguage": 0,
        "GpsLocation": {
            "Latitude": 9.46481,
            "Longitude": 46.18691
        },
        "Region": "Jaman",
        "District": "Ainabo",
        "Village": "Fadhiyar",
        "RegisteredAt": "2018-09-28T09:43:29.975279+02:00"
    },
    {
        "DataCollectorId": "1246DDD4-0DF1-4D44-9BC5-CABCE848CFA7",
        "FullName": "Sam",
        "DisplayName": "Sam",
        "YearOfBirth": 1980,
        "Sex": 1,
        "PreferredLanguage": 0,
        "GpsLocation": {
            "Latitude": 8.81457,
            "Longitude": 44.99545
        },
        "Region": "Jaman",
        "District": "Rio",
        "Village": "Skagen",
        "RegisteredAt": "2018-09-28T09:43:29.975279+02:00"
    },
    {
        "DataCollectorId": "91CC9163-9699-42F4-8B6F-4394A9A11307",
        "FullName": "Sayid",
        "DisplayName": "Sayid",
        "YearOfBirth": 1981,
        "Sex": 1,
        "PreferredLanguage": 0,
        "GpsLocation": {
            "Latitude": 8.81457,
            "Longitude": 44.99545
        },
        "Region": "Basal",
        "District": "Rogaland",
        "Village": "Beira",
        "RegisteredAt": "2018-09-28T09:43:29.975279+02:00"
    },
    {
        "DataCollectorId": "5155F404-922A-4570-AE8E-E3962581951A",
        "FullName": "Taysir",
        "DisplayName": "Taysir",
        "YearOfBirth": 1981,
        "Sex": 1,
        "PreferredLanguage": 0,
        "GpsLocation": {
            "Latitude": 9.04448,
            "Longitude": 45.28793
        },
        "Region": "Jaman",
        "District": "Rio",
        "Village": "Mali",
        "RegisteredAt": "2018-09-28T09:43:29.975279+02:00"
    },
    {
        "DataCollectorId": "FA4596DE-7E9B-458E-9C8C-13A9142EA78B",
        "FullName": "Yusuf",
        "DisplayName": "Yusuf",
        "YearOfBirth": 1982,
        "Sex": 1,
        "PreferredLanguage": 0,
        "GpsLocation": {
            "Latitude": 9.507754,
            "Longitude": 45.519592
        },
        "Region": "Yusuf",
        "District": "Basal",
        "Village": "Daka",
        "RegisteredAt": "2018-09-28T09:43:29.975279+02:00"
    }
]
